<?xml version="1.0" encoding="UTF-8"?>
<BusDynInfo><EssentialInfo><Location><name></name><CenterName></CenterName></Location><UpdateTime>2019-11-12 21:51:52</UpdateTime><CoordinateSystem></CoordinateSystem></EssentialInfo><BusInfo><Stop Id="1000" routeId="100" nameZh="瑞豐站(瑞隆路)" seqNo="1" pgp="0" terminal="0" districtId="1" GoBack="1" latitude="22.606123" longitude="120.338443" EXTVoiceNO="01000" SID="178" ivrno="1000"/><Stop Id="1202" routeId="100" nameZh="永豐路口" seqNo="2" pgp="0" terminal="0" districtId="1" GoBack="1" latitude="22.605742" longitude="120.334387" EXTVoiceNO="01202" SID="308" ivrno="1202"/><Stop Id="1603" routeId="100" nameZh="崗山市場" seqNo="3" pgp="0" terminal="0" districtId="1" GoBack="1" latitude="22.607333" longitude="120.333533" EXTVoiceNO="17116" SID="831" ivrno="1603"/><Stop Id="1604" routeId="100" nameZh="崗山北街口" seqNo="4" pgp="0" terminal="0" districtId="1" GoBack="1" latitude="22.609866" longitude="120.33315" EXTVoiceNO="17117" SID="832" ivrno="1604"/><Stop Id="1605" routeId="100" nameZh="鐵路機料廠" seqNo="5" pgp="0" terminal="0" districtId="1" GoBack="1" latitude="22.612866" longitude="120.332716" EXTVoiceNO="01605" SID="833" ivrno="1605"/><Stop Id="9002" routeId="100" nameZh="鳳山工業區(監理所後)" seqNo="6" pgp="0" terminal="0" districtId="1" GoBack="1" latitude="22.614283" longitude="120.332533" EXTVoiceNO="09982" SID="12822" ivrno="9002"/><Stop Id="1607" routeId="100" nameZh="鐵路機廠" seqNo="7" pgp="0" terminal="0" districtId="1" GoBack="1" latitude="22.617133" longitude="120.33225" EXTVoiceNO="01607" SID="837" ivrno="1607"/><Stop Id="1608" routeId="100" nameZh="武慶三路" seqNo="8" pgp="0" terminal="0" districtId="1" GoBack="1" latitude="22.619716" longitude="120.331966" EXTVoiceNO="01608" SID="840" ivrno="1608"/><Stop Id="0791" routeId="100" nameZh="五塊厝(武慶三路)" seqNo="9" pgp="0" terminal="0" districtId="1" GoBack="1" latitude="22.62145" longitude="120.331783" EXTVoiceNO="00791" SID="841" ivrno="791"/><Stop Id="0106" routeId="100" nameZh="三信家商" seqNo="10" pgp="0" terminal="0" districtId="1" GoBack="1" latitude="22.62205" longitude="120.329316" EXTVoiceNO="00140" SID="140" ivrno="106"/><Stop Id="0107" routeId="100" nameZh="國際商工" seqNo="11" pgp="0" terminal="0" districtId="1" GoBack="1" latitude="22.62115" longitude="120.3265" EXTVoiceNO="00139" SID="152" ivrno="107"/><Stop Id="0108" routeId="100" nameZh="五權國小(三多二路)" seqNo="12" pgp="0" terminal="0" districtId="1" GoBack="1" latitude="22.620283" longitude="120.323742" EXTVoiceNO="00108" SID="52" ivrno="108"/><Stop Id="1013" routeId="100" nameZh="和平路口" seqNo="13" pgp="0" terminal="0" districtId="1" GoBack="1" latitude="22.619547" longitude="120.321486" EXTVoiceNO="01051" SID="54" ivrno="1013"/><Stop Id="1014" routeId="100" nameZh="林德官(三和市場)" seqNo="14" pgp="0" terminal="0" districtId="1" GoBack="1" latitude="22.619017" longitude="120.319886" EXTVoiceNO="01050" SID="59" ivrno="1014"/><Stop Id="1049" routeId="100" nameZh="光華路口(光華夜市)" seqNo="15" pgp="0" terminal="0" districtId="1" GoBack="1" latitude="22.618287" longitude="120.317339" EXTVoiceNO="01049" SID="843" ivrno="1049"/><Stop Id="1120" routeId="100" nameZh="三多市場(三多三路)" seqNo="16" pgp="0" terminal="0" districtId="1" GoBack="1" latitude="22.617118" longitude="120.313783" EXTVoiceNO="01648" SID="848" ivrno="1120"/><Stop Id="1425" routeId="100" nameZh="三多復興路口" seqNo="17" pgp="0" terminal="0" districtId="1" GoBack="1" latitude="22.61655" longitude="120.31235" EXTVoiceNO="02157" SID="849" ivrno="1425"/><Stop Id="1618" routeId="100" nameZh="仁愛三街口" seqNo="18" pgp="0" terminal="0" districtId="1" GoBack="1" latitude="22.616033" longitude="120.310733" EXTVoiceNO="01646" SID="854" ivrno="1618"/><Stop Id="1619" routeId="100" nameZh="三多三路" seqNo="19" pgp="0" terminal="0" districtId="1" GoBack="1" latitude="22.615446" longitude="120.308815" EXTVoiceNO="01645" SID="855" ivrno="1619"/><Stop Id="2046" routeId="100" nameZh="新光三越(捷運三多商圈站)" seqNo="20" pgp="0" terminal="0" districtId="1" GoBack="1" latitude="22.614466" longitude="120.306183" EXTVoiceNO="32371" SID="17470" ivrno="2046"/><Stop Id="1516" routeId="100" nameZh="大遠百百貨(捷運三多商圈站)" seqNo="21" pgp="0" terminal="0" districtId="1" GoBack="1" latitude="22.613723" longitude="120.303662" EXTVoiceNO="01516" SID="757" ivrno="1516"/><Stop Id="1662" routeId="100" nameZh="自強三路口(三多四路)" seqNo="22" pgp="0" terminal="0" districtId="1" GoBack="1" latitude="22.612812" longitude="120.300925" EXTVoiceNO="04087" SID="907" ivrno="1662"/><Stop Id="1517" routeId="100" nameZh="八五大樓" seqNo="23" pgp="0" terminal="0" districtId="1" GoBack="1" latitude="22.612362" longitude="120.299587" EXTVoiceNO="01517" SID="766" ivrno="1517"/><Stop Id="1623" routeId="100" nameZh="成功國小" seqNo="24" pgp="0" terminal="0" districtId="1" GoBack="1" latitude="22.613875" longitude="120.297828" EXTVoiceNO="01623" SID="859" ivrno="1623"/><Stop Id="1624" routeId="100" nameZh="苓雅市場" seqNo="25" pgp="0" terminal="0" districtId="1" GoBack="1" latitude="22.61696" longitude="120.29676" EXTVoiceNO="01624" SID="865" ivrno="1624"/><Stop Id="1027" routeId="100" nameZh="漢神百貨" seqNo="26" pgp="0" terminal="0" districtId="1" GoBack="1" latitude="22.619253" longitude="120.295799" EXTVoiceNO="01027" SID="80" ivrno="1027"/><Stop Id="0017" routeId="100" nameZh="大立百貨" seqNo="27" pgp="0" terminal="0" districtId="1" GoBack="1" latitude="22.621403" longitude="120.296011" EXTVoiceNO="00036" SID="2595" ivrno="17"/><Stop Id="9935" routeId="100" nameZh="大立百貨(文武二街口)" seqNo="28" pgp="0" terminal="0" districtId="1" GoBack="1" latitude="22.621858" longitude="120.297517" EXTVoiceNO="09935" SID="12287" ivrno="9935"/><Stop Id="0037" routeId="100" nameZh="城市光廊(捷運中央公園站)" seqNo="29" pgp="0" terminal="0" districtId="1" GoBack="1" latitude="22.622617" longitude="120.299883" EXTVoiceNO="00037" SID="2622" ivrno="37"/><Stop Id="0119" routeId="100" nameZh="捷運中央公園站" seqNo="30" pgp="0" terminal="0" districtId="1" GoBack="1" latitude="22.62468" longitude="120.30125" EXTVoiceNO="00119" SID="282" ivrno="119"/><Stop Id="0120" routeId="100" nameZh="捷運美麗島站" seqNo="31" pgp="0" terminal="0" districtId="1" GoBack="1" latitude="22.63014" longitude="120.30193" EXTVoiceNO="00120" SID="300" ivrno="120"/><Stop Id="0125" routeId="100" nameZh="六合夜市(大港埔)" seqNo="32" pgp="0" terminal="0" districtId="1" GoBack="1" latitude="22.633844" longitude="120.302261" EXTVoiceNO="00121" SID="332" ivrno="125"/><Stop Id="1445" routeId="100" nameZh="中山一路口" seqNo="33" pgp="0" terminal="0" districtId="1" GoBack="1" latitude="22.634416" longitude="120.3036" EXTVoiceNO="01445" SID="674" ivrno="1445"/><Stop Id="0092" routeId="100" nameZh="林森路口(高雄火車站)" seqNo="34" pgp="0" terminal="0" districtId="1" GoBack="1" latitude="22.637686" longitude="120.304302" EXTVoiceNO="00411" SID="11354" ivrno="92"/><Stop Id="0412" routeId="100" nameZh="高雄火車站(捷運高雄車站)" seqNo="35" pgp="0" terminal="1" districtId="1" GoBack="1" latitude="22.636991" longitude="120.302217" EXTVoiceNO="00412" SID="2897" ivrno="412"/><Stop Id="0412" routeId="100" nameZh="高雄火車站(捷運高雄車站)" seqNo="1" pgp="0" terminal="0" districtId="1" GoBack="2" latitude="22.636446" longitude="120.30219" EXTVoiceNO="00412" SID="19011" ivrno="412"/><Stop Id="0125" routeId="100" nameZh="六合夜市(大港埔)" seqNo="2" pgp="0" terminal="0" districtId="1" GoBack="2" latitude="22.633986" longitude="120.30207" EXTVoiceNO="00121" SID="393" ivrno="125"/><Stop Id="0120" routeId="100" nameZh="捷運美麗島站" seqNo="3" pgp="0" terminal="0" districtId="1" GoBack="2" latitude="22.6304" longitude="120.30162" EXTVoiceNO="00120" SID="402" ivrno="120"/><Stop Id="0119" routeId="100" nameZh="捷運中央公園站" seqNo="4" pgp="0" terminal="0" districtId="1" GoBack="2" latitude="22.6247" longitude="120.30103" EXTVoiceNO="00119" SID="405" ivrno="119"/><Stop Id="0037" routeId="100" nameZh="城市光廊(捷運中央公園站)" seqNo="5" pgp="0" terminal="0" districtId="1" GoBack="2" latitude="22.623033" longitude="120.300356" EXTVoiceNO="00037" SID="825" ivrno="37"/><Stop Id="9935" routeId="100" nameZh="大立百貨(文武二街口)" seqNo="6" pgp="0" terminal="0" districtId="1" GoBack="2" latitude="22.621986" longitude="120.297313" EXTVoiceNO="09935" SID="12288" ivrno="9935"/><Stop Id="1027" routeId="100" nameZh="漢神百貨" seqNo="7" pgp="0" terminal="0" districtId="1" GoBack="2" latitude="22.619188" longitude="120.295624" EXTVoiceNO="01027" SID="91" ivrno="1027"/><Stop Id="1624" routeId="100" nameZh="苓雅市場" seqNo="8" pgp="0" terminal="0" districtId="1" GoBack="2" latitude="22.616798" longitude="120.296654" EXTVoiceNO="01624" SID="874" ivrno="1624"/><Stop Id="1623" routeId="100" nameZh="成功國小" seqNo="9" pgp="0" terminal="0" districtId="1" GoBack="2" latitude="22.613894" longitude="120.297617" EXTVoiceNO="01623" SID="879" ivrno="1623"/><Stop Id="1517" routeId="100" nameZh="八五大樓" seqNo="10" pgp="0" terminal="0" districtId="1" GoBack="2" latitude="22.61242" longitude="120.3" EXTVoiceNO="01517" SID="792" ivrno="1517"/><Stop Id="1662" routeId="100" nameZh="自強三路口(三多四路)" seqNo="11" pgp="0" terminal="0" districtId="1" GoBack="2" latitude="22.612672" longitude="120.300942" EXTVoiceNO="04087" SID="909" ivrno="1662"/><Stop Id="1516" routeId="100" nameZh="大遠百百貨(捷運三多商圈站)" seqNo="12" pgp="0" terminal="0" districtId="1" GoBack="2" latitude="22.613502" longitude="120.303276" EXTVoiceNO="01516" SID="795" ivrno="1516"/><Stop Id="2046" routeId="100" nameZh="新光三越(捷運三多商圈站)" seqNo="13" pgp="0" terminal="0" districtId="1" GoBack="2" latitude="22.614464" longitude="120.306187" EXTVoiceNO="32371" SID="17277" ivrno="2046"/><Stop Id="1619" routeId="100" nameZh="三多三路" seqNo="14" pgp="0" terminal="0" districtId="1" GoBack="2" latitude="22.615385" longitude="120.309006" EXTVoiceNO="01645" SID="885" ivrno="1619"/><Stop Id="1618" routeId="100" nameZh="仁愛三街口" seqNo="15" pgp="0" terminal="0" districtId="1" GoBack="2" latitude="22.615933" longitude="120.310733" EXTVoiceNO="01646" SID="886" ivrno="1618"/><Stop Id="1425" routeId="100" nameZh="三多復興路口" seqNo="16" pgp="0" terminal="0" districtId="1" GoBack="2" latitude="22.61645" longitude="120.31235" EXTVoiceNO="02157" SID="892" ivrno="1425"/><Stop Id="1120" routeId="100" nameZh="三多市場(三多三路)" seqNo="17" pgp="0" terminal="0" districtId="1" GoBack="2" latitude="22.61735" longitude="120.314883" EXTVoiceNO="01648" SID="893" ivrno="1120"/><Stop Id="1049" routeId="100" nameZh="光華路口(光華夜市)" seqNo="18" pgp="0" terminal="0" districtId="1" GoBack="2" latitude="22.618416" longitude="120.318233" EXTVoiceNO="01049" SID="117" ivrno="1049"/><Stop Id="1014" routeId="100" nameZh="林德官(三和市場)" seqNo="19" pgp="0" terminal="0" districtId="1" GoBack="2" latitude="22.618872" longitude="120.319796" EXTVoiceNO="01050" SID="125" ivrno="1014"/><Stop Id="1013" routeId="100" nameZh="和平路口" seqNo="20" pgp="0" terminal="0" districtId="1" GoBack="2" latitude="22.619303" longitude="120.321102" EXTVoiceNO="01051" SID="126" ivrno="1013"/><Stop Id="0108" routeId="100" nameZh="五權國小(三多二路)" seqNo="21" pgp="0" terminal="0" districtId="1" GoBack="2" latitude="22.620194" longitude="120.323886" EXTVoiceNO="00108" SID="132" ivrno="108"/><Stop Id="0107" routeId="100" nameZh="國際商工" seqNo="22" pgp="0" terminal="0" districtId="1" GoBack="2" latitude="22.62105" longitude="120.3265" EXTVoiceNO="00139" SID="555" ivrno="107"/><Stop Id="0106" routeId="100" nameZh="三信家商" seqNo="23" pgp="0" terminal="0" districtId="1" GoBack="2" latitude="22.62195" longitude="120.329316" EXTVoiceNO="00140" SID="569" ivrno="106"/><Stop Id="0791" routeId="100" nameZh="五塊厝(武慶三路)" seqNo="24" pgp="0" terminal="0" districtId="1" GoBack="2" latitude="22.62145" longitude="120.331683" EXTVoiceNO="00791" SID="896" ivrno="791"/><Stop Id="1608" routeId="100" nameZh="武慶三路" seqNo="25" pgp="0" terminal="0" districtId="1" GoBack="2" latitude="22.619716" longitude="120.331866" EXTVoiceNO="01608" SID="897" ivrno="1608"/><Stop Id="1607" routeId="100" nameZh="鐵路機廠" seqNo="26" pgp="0" terminal="0" districtId="1" GoBack="2" latitude="22.616978" longitude="120.332133" EXTVoiceNO="01607" SID="899" ivrno="1607"/><Stop Id="9002" routeId="100" nameZh="鳳山工業區(監理所後)" seqNo="27" pgp="0" terminal="0" districtId="1" GoBack="2" latitude="22.614653" longitude="120.332408" EXTVoiceNO="09982" SID="12823" ivrno="9002"/><Stop Id="1605" routeId="100" nameZh="鐵路機料廠" seqNo="28" pgp="0" terminal="0" districtId="1" GoBack="2" latitude="22.612681" longitude="120.332553" EXTVoiceNO="01605" SID="903" ivrno="1605"/><Stop Id="1604" routeId="100" nameZh="崗山北街口" seqNo="29" pgp="0" terminal="0" districtId="1" GoBack="2" latitude="22.60985" longitude="120.333022" EXTVoiceNO="17117" SID="905" ivrno="1604"/><Stop Id="1603" routeId="100" nameZh="崗山市場" seqNo="30" pgp="0" terminal="0" districtId="1" GoBack="2" latitude="22.607278" longitude="120.333356" EXTVoiceNO="17116" SID="906" ivrno="1603"/><Stop Id="1202" routeId="100" nameZh="永豐路口" seqNo="31" pgp="0" terminal="0" districtId="1" GoBack="2" latitude="22.605583" longitude="120.334383" EXTVoiceNO="01202" SID="384" ivrno="1202"/><Stop Id="1000" routeId="100" nameZh="瑞豐站(瑞隆路)" seqNo="32" pgp="0" terminal="1" districtId="1" GoBack="2" latitude="22.606123" longitude="120.338443" EXTVoiceNO="01000" SID="288" ivrno="1000"/></BusInfo></BusDynInfo>